{"stores":[{"city":"'s Gravendeel","postalCode":"3295 BD","street":"Kerkstraat","street2":"37","street3":"","addressName":"Jack 's Gravendeel Gravendeel Centrum","longitude":"4.615551","latitude":"51.778461","complexNumber":"33249","showWarningMessage":true,"todayOpen":"08:00","locationType":"SupermarktPuP","collectionPoint":true,"sapStoreID":"3605","todayClose":"20:00"},{"city":"'s-Heerenberg","postalCode":"7041 JE","street":"Stadsplein","street2":"71","street3":"","addressName":"Jack 's-Heerenberg Stadsplein","longitude":"6.245829","latitude":"51.874272","complexNumber":"30170","showWarningMessage":true,"todayOpen":"08:00","locationType":"Supermarkt","sapStoreID":"4670","todayClose":"21:00"},{"city":"Aalsmeer","postalCode":"1431 HN","street":"Ophelialaan","street2":"124","street3":"","addressName":"Jack Aalsmeer Ophelialaan","longitude":"4.762433","latitude":"52.264417","complexNumber":"33010","showWarningMessage":true,"todayOpen":"08:00","locationType":"SupermarktPuP","collectionPoint":true,"sapStoreID":"3178","todayClose":"22:00"},{"city":"Aalst","postalCode":"5582 CL","street":"Hortensialaan","street2":"2","street3":"","addressName":"Jack Aalst Paul en Marjon Houben","longitude":"5.469597","latitude":"51.399843","complexNumber":"33011","showWarningMessage":true,"todayOpen":"08:00","locationType":"SupermarktPuP","collectionPoint":true,"sapStoreID":"3754","todayClose":"20:00"},{"city":"Aalten","postalCode":"7122 WJ","street":"Admiraal de Ruyterstraat","street2":"10","street3":"","addressName":"Jack Aalten Leussink","longitude":"6.576066","latitude":"51.923993","complexNumber":"30519","showWarningMessage":true,"todayOpen":"08:00","locationType":"SupermarktPuP","collectionPoint":true,"sapStoreID":"6487","todayClose":"21:00"},{"city":"Aardenburg","postalCode":"4527 BK","street":"Peurssensstraat","street2":"21","street3":"","addressName":"Jack Aardenburg Ingels","longitude":"3.444601","latitude":"51.275006","complexNumber":"33012","showWarningMessage":true,"todayOpen":"08:00","locationType":"SupermarktPuP","collectionPoint":true,"sapStoreID":"3726","todayClose":"19:00"},{"city":"Alkmaar","postalCode":"1824 XT","street":"Muiderwaard","street2":"416","street3":"","addressName":"Jack Alkmaar Duijvelshoff","longitude":"4.749492","latitude":"52.645601","complexNumber":"33282","showWarningMessage":true,"todayOpen":"Gesloten","locationType":"Supermarkt","sapStoreID":"3574","todayClose":"Gesloten"},{"city":"Alkmaar","postalCode":"1827 LB","street":"J. Naberstraat","street2":"49-51","street3":"","addressName":"Jack Alkmaar J. Naberstraat","longitude":"4.766146","latitude":"52.665822","complexNumber":"33504","showWarningMessage":true,"todayOpen":"08:00","locationType":"SupermarktPuP","collectionPoint":true,"sapStoreID":"3047","todayClose":"22:00"},{"city":"Alkmaar","postalCode":"1811 KH","street":"Paardenmarkt","street2":"2","street3":"","addressName":"Jack Alkmaar Paardenmarkt","longitude":"4.745031","latitude":"52.633740","complexNumber":"30043","showWarningMessage":true,"todayOpen":"08:00","locationType":"Supermarkt","sapStoreID":"4688","todayClose":"21:00"},{"city":"Alkmaar","postalCode":"1824 HX","street":"Winkelwaard","street2":"486","street3":"","addressName":"Jack Alkmaar Winkelwaard","longitude":"4.759373","latitude":"52.645642","complexNumber":"33508","showWarningMessage":true,"todayOpen":"08:00","locationType":"SupermarktPuP","collectionPoint":true,"sapStoreID":"3617","todayClose":"22:00"},{"city":"Almelo","postalCode":"7601 BD","street":"Bornerbroeksestraat","street2":"79","street3":"","addressName":"Jack Almelo Bornerbroeksestraat","longitude":"6.660543","latitude":"52.349813","complexNumber":"32254","showWarningMessage":true,"todayOpen":"08:00","locationType":"SupermarktPuP","collectionPoint":true,"sapStoreID":"4946","todayClose":"21:00"},{"city":"Almere","postalCode":"1316 HC","street":"Geinplein","street2":"32-37","street3":"","addressName":"Jack Almere Waterwijk Geinplein","longitude":"5.224110","latitude":"52.384906","complexNumber":"32004","showWarningMessage":true,"todayOpen":"08:00","locationType":"SupermarktPuP","collectionPoint":true,"sapStoreID":"4817","todayClose":"22:00"},{"city":"Almere-Buiten","postalCode":"1334 KB","street":"Detroitpad","street2":"1","street3":"","addressName":"Jack Almere-Buiten Detroitpad","longitude":"5.274883","latitude":"52.395474","complexNumber":"33014","showWarningMessage":true,"todayOpen":"08:00","locationType":"SupermarktPuP","collectionPoint":true,"sapStoreID":"3094","todayClose":"22:00"},{"city":"Almere-Haven","postalCode":"1356 AZ","street":"Jaagmeent","street2":"250","street3":"","addressName":"Jack Almere-Haven Jaagmeent","longitude":"5.231883","latitude":"52.336693","complexNumber":"32225","showWarningMessage":true,"todayOpen":"08:00","locationType":"SupermarktPuP","collectionPoint":true,"sapStoreID":"3098","todayClose":"22:00"},{"city":"Alphen aan den Rijn","postalCode":"2402 DK","street":"Herenhof","street2":"183","street3":"","addressName":"Jack Alphen aan den Rijn Ten Brink Food","longitude":"4.661277","latitude":"52.150632","complexNumber":"33238","showWarningMessage":true,"todayOpen":"08:00","locationType":"SupermarktPuP","collectionPoint":true,"sapStoreID":"3546","todayClose":"20:00"},{"city":"Amerongen","postalCode":"3958 XH","street":"Koenestraat","street2":"36","street3":"","addressName":"Jack Amerongen Koenestraat","longitude":"5.461122","latitude":"52.002437","complexNumber":"30489","showWarningMessage":true,"todayOpen":"08:00","locationType":"Supermarkt","sapStoreID":"6366","todayClose":"21:00"},{"city":"Amersfoort","postalCode":"3823 ET","street":"Emiclaerhof","street2":"248","street3":"","addressName":"Jack Amersfoort Den Blanken Emiclaer","longitude":"5.398059","latitude":"52.185990","complexNumber":"33018","showWarningMessage":true,"todayOpen":"07:00","locationType":"SupermarktPuP","collectionPoint":true,"sapStoreID":"3540","todayClose":"22:00"},{"city":"Amersfoort","postalCode":"3824 EE","street":"Zonnewijzer","street2":"21","street3":"","addressName":"Jack Amersfoort Den Blanken Nieuwland","longitude":"5.376590","latitude":"52.199279","complexNumber":"33021","showWarningMessage":true,"todayOpen":"07:00","locationType":"SupermarktPuP","collectionPoint":true,"sapStoreID":"3426","todayClose":"22:00"},{"city":"Amersfoort","postalCode":"3817 KD","street":"Leusderweg","street2":"152","street3":"","addressName":"Jack Amersfoort Leusderweg.","longitude":"5.381369","latitude":"52.143866","complexNumber":"32257","showWarningMessage":true,"todayOpen":"08:00","locationType":"SupermarktPuP","collectionPoint":true,"sapStoreID":"4730","todayClose":"21:00"},{"city":"Amersfoort","postalCode":"3814 BR","street":"Neptunusplein","street2":"66A","street3":"","addressName":"Jack Amersfoort Neptunusplein","longitude":"5.399515","latitude":"52.162897","complexNumber":"32005","showWarningMessage":true,"todayOpen":"08:00","locationType":"Supermarkt","sapStoreID":"4830","todayClose":"20:00"},{"city":"Amersfoort","postalCode":"3818 LA","street":"Berkenweg","street2":"11a","street3":"","addressName":"Jack Amersfoort PUP Medewerkers FrieslandCampina","longitude":"5.377845","latitude":"52.151843","complexNumber":"35008","showWarningMessage":true,"todayOpen":"Gesloten","locationType":"PuP","collectionPoint":true,"sapStoreID":"8856","todayClose":"Gesloten"},{"city":"Amersfoort","postalCode":"3813 PR","street":"Pieter Stastokerf","street2":"6-8","street3":"","addressName":"Jack Amersfoort Pieter Stastokerf","longitude":"5.389766","latitude":"52.173049","complexNumber":"33019","showWarningMessage":true,"todayOpen":"07:00","locationType":"Supermarkt","sapStoreID":"3064","todayClose":"22:00"},{"city":"Amersfoort","postalCode":"3825 LS","street":"Paulinapolder","street2":"1","street3":"","addressName":"Jack Amersfoort Vathorst","longitude":"5.430602","latitude":"52.193992","complexNumber":"33256","showWarningMessage":true,"todayOpen":"08:00","locationType":"SupermarktPuP","collectionPoint":true,"sapStoreID":"3534","todayClose":"22:00"},{"city":"Amersfoort","postalCode":"3815 GK","street":"Wiekslag","street2":"261","street3":"","addressName":"Jack Amersfoort Wiekslag","longitude":"5.409000","latitude":"52.166540","complexNumber":"33020","showWarningMessage":true,"todayOpen":"08:00","locationType":"Supermarkt","sapStoreID":"3119","todayClose":"20:00"},{"city":"Amstelveen","postalCode":"1186 EZ","street":"Groenhof","street2":"165","street3":"","addressName":"Jack Amstelveen Groenhof","longitude":"4.869239","latitude":"52.289047","complexNumber":"32006","showWarningMessage":true,"todayOpen":"08:00","locationType":"SupermarktPuP","collectionPoint":true,"sapStoreID":"4822","todayClose":"21:00"},{"city":"Amstelveen","postalCode":"1181 GV","street":"Rembrandtweg","street2":"617-635","street3":"","addressName":"Jack Amstelveen Veenbrink","longitude":"4.862680","latitude":"52.314032","complexNumber":"32262","showWarningMessage":true,"todayOpen":"08:00","locationType":"SupermarktPuP","collectionPoint":true,"sapStoreID":"7069","todayClose":"21:00"},{"city":"Amsterdam","postalCode":"1058 AH","street":"Baarsjesweg","street2":"303-305","street3":"","addressName":"Jack Amsterdam Baarsjesweg","longitude":"4.855152","latitude":"52.358817","complexNumber":"32207","showWarningMessage":true,"todayOpen":"08:00","locationType":"Supermarkt","sapStoreID":"4932","todayClose":"21:00"},{"city":"Amsterdam","postalCode":"1025 EW","street":"Buikslotermeerplein","street2":"52","street3":"","addressName":"Jack Amsterdam Buikslotermeerplein","longitude":"4.935776","latitude":"52.399066","complexNumber":"33510","showWarningMessage":true,"todayOpen":"08:00","locationType":"SupermarktPuP","collectionPoint":true,"sapStoreID":"3054","todayClose":"21:00"},{"city":"Amsterdam","postalCode":"1081 AC","street":"Buitenveldertselaan","street2":"184","street3":"","addressName":"Jack Amsterdam Buitenveldertselaan","longitude":"4.868105","latitude":"52.324550","complexNumber":"30196","showWarningMessage":true,"todayOpen":"08:00","locationType":"SupermarktPuP","collectionPoint":true,"sapStoreID":"6448","todayClose":"22:00"},{"city":"Amsterdam","postalCode":"1060 TZ","street":"Pieter Calandlaan","street2":"808","street3":"","addressName":"Jack Amsterdam De Aker","longitude":"4.786455","latitude":"52.349779","complexNumber":"33024","showWarningMessage":true,"todayOpen":"07:00","locationType":"Supermarkt","sapStoreID":"3668","todayClose":"22:00"},{"city":"Amsterdam","postalCode":"1021 KP","street":"Gedempt Hamerkanaal","street2":"223","street3":"","addressName":"Jack Amsterdam Foodmarkt Amsterdam","longitude":"4.919767","latitude":"52.383263","complexNumber":"32205","showWarningMessage":true,"todayOpen":"08:00","locationType":"Supermarkt","sapStoreID":"4703","todayClose":"21:00"},{"city":"Amsterdam","postalCode":"1075 PA","street":"H. Jacobszstraat","street2":"9","street3":"","addressName":"Jack Amsterdam H. Jacobszstraat","longitude":"4.860463","latitude":"52.351722","complexNumber":"30769","showWarningMessage":true,"todayOpen":"08:00","locationType":"Supermarkt","sapStoreID":"4690","todayClose":"21:00"},{"city":"Amsterdam","postalCode":"1019 BW","street":"Oostelijke Handelskade","street2":"1005","street3":"","addressName":"Jack Amsterdam Oostelijke Handelskade","longitude":"4.935351","latitude":"52.374447","complexNumber":"33023","showWarningMessage":true,"todayOpen":"08:00","locationType":"SupermarktPuP","collectionPoint":true,"sapStoreID":"3427","todayClose":"22:00"},{"city":"Amsterdam","postalCode":"1063 KR","street":"Plein '40-'45","street2":"12","street3":"","addressName":"Jack Amsterdam Plein '40-'45","longitude":"4.821771","latitude":"52.380655","complexNumber":"32251","showWarningMessage":true,"todayOpen":"08:00","locationType":"Supermarkt","sapStoreID":"4721","todayClose":"22:00"},{"city":"Amsterdam","postalCode":"1107 ET","street":"Reigersbos","street2":"196","street3":"","addressName":"Jack Amsterdam Reigersbos","longitude":"4.976122","latitude":"52.294533","complexNumber":"33025","showWarningMessage":true,"todayOpen":"08:00","locationType":"Supermarkt","sapStoreID":"3428","todayClose":"22:00"},{"city":"Amsterdam","postalCode":"1013 TH","street":"Spaarndammerstraat","street2":"544","street3":"","addressName":"Jack Amsterdam Spaarndammerstraat","longitude":"4.879655","latitude":"52.389402","complexNumber":"32252","showWarningMessage":true,"todayOpen":"08:00","locationType":"Supermarkt","sapStoreID":"4726","todayClose":"22:00"},{"city":"Amsterdam","postalCode":"1073 AV","street":"Stadhouderskade","street2":"93","street3":"","addressName":"Jack Amsterdam Stadhouderskade","longitude":"4.895801","latitude":"52.357579","complexNumber":"32266","showWarningMessage":true,"todayOpen":"08:00","locationType":"Supermarkt","sapStoreID":"4738","todayClose":"22:00"},{"city":"Amsterdam","postalCode":"1083 CD","street":"Kastelenstraat","street2":"70","street3":"","addressName":"Jack Amsterdam Velu","longitude":"4.883150","latitude":"52.326242","complexNumber":"33007","showWarningMessage":true,"todayOpen":"08:00","locationType":"Supermarkt","sapStoreID":"3520","todayClose":"22:00"},{"city":"Amsterdam","postalCode":"1015 MN","street":"Westerstraat","street2":"98-102","street3":"","addressName":"Jack Amsterdam Westerstraat","longitude":"4.883832","latitude":"52.378670","complexNumber":"30644","showWarningMessage":true,"todayOpen":"08:00","locationType":"SupermarktPuP","collectionPoint":true,"sapStoreID":"6364","todayClose":"21:00"}],"attributes":{"longitude":{},"latitude":{}}}
